City_ID,City,Lat,Lng,Max Temp,Humidity,Cloudiness,Wind Speed,Snow,Rain,Country,Current Description,Date
0,Henties Bay,-22.12,14.28,60.01,89,0,3.0,0.0,0.0,NA,clear sky,2019-11-09 18:27:19
1,Bethel,60.79,-161.76,26.6,92,1,11.41,0.0,0.0,US,clear sky,2019-11-09 18:27:20
2,Saint-Francois,46.42,3.91,39.2,93,90,3.36,0.0,0.0,FR,overcast clouds,2019-11-09 18:27:20
3,Ushuaia,-54.81,-68.31,44.6,52,40,9.17,0.0,0.0,AR,scattered clouds,2019-11-09 18:26:33
4,Mar Del Plata,-46.43,-67.52,52.52,44,0,13.8,0.0,0.0,AR,clear sky,2019-11-09 18:27:20
5,Kruisfontein,-34.0,24.73,59.31,78,100,16.51,0.0,0.0,ZA,overcast clouds,2019-11-09 18:23:53
6,Bronnoysund,65.46,12.2,23.0,62,0,10.29,0.0,0.0,NO,clear sky,2019-11-09 18:27:21
7,Yumen,40.29,97.04,32.97,34,0,12.39,0.0,0.0,CN,clear sky,2019-11-09 18:27:21
8,Albany,42.65,-73.75,37.99,44,40,10.29,0.0,0.0,US,scattered clouds,2019-11-09 18:27:19
9,Dikson,73.51,80.55,1.63,96,77,5.59,0.0,0.0,RU,broken clouds,2019-11-09 18:22:42
10,Ossora,59.24,163.07,35.8,81,96,5.84,0.25,0.0,RU,light snow,2019-11-09 18:27:22
11,Vaini,15.34,74.49,67.87,92,14,1.99,0.0,0.0,IN,few clouds,2019-11-09 18:27:22
12,Castro,-42.48,-73.76,66.2,52,82,6.93,0.0,0.0,CL,broken clouds,2019-11-09 18:27:22
13,Vanimo,-2.67,141.3,82.24,77,100,8.05,0.0,4.19,PG,moderate rain,2019-11-09 18:27:23
14,San Cristobal,14.68,-86.92,75.2,70,90,7.05,0.0,0.13,HN,light rain,2019-11-09 18:23:04
15,Ulladulla,-35.36,150.48,59.0,44,67,17.22,0.0,0.0,AU,broken clouds,2019-11-09 18:23:40
16,Ewa Beach,21.32,-158.01,77.0,73,75,3.36,0.0,0.0,US,broken clouds,2019-11-09 18:27:11
17,Bluff,-23.58,149.07,60.48,24,0,8.1,0.0,0.0,AU,clear sky,2019-11-09 18:27:24
18,Maldonado,-34.91,-54.96,71.6,46,40,14.99,0.0,0.0,UY,scattered clouds,2019-11-09 18:23:26
19,Mataura,-46.19,168.86,48.99,92,100,5.01,0.0,10.13,NZ,moderate rain,2019-11-09 18:27:24
20,Jamestown,-33.21,138.6,43.21,93,0,4.63,0.0,0.0,AU,clear sky,2019-11-09 18:27:24
21,Geraldton,49.72,-86.95,19.4,79,90,4.45,0.0,0.0,CA,light snow,2019-11-09 18:27:24
22,Punta Arenas,-53.16,-70.91,46.4,48,0,13.87,0.0,0.0,CL,clear sky,2019-11-09 18:23:30
23,Mitu,36.2,46.09,42.67,30,0,6.58,0.0,0.0,IR,clear sky,2019-11-09 18:27:25
24,Bredasdorp,-34.53,20.04,64.99,77,28,18.34,0.0,0.0,ZA,scattered clouds,2019-11-09 18:22:49
25,Port Alfred,-33.59,26.89,66.0,78,100,8.99,0.0,0.0,ZA,overcast clouds,2019-11-09 18:27:26
26,Busselton,-33.64,115.35,66.99,63,0,18.77,0.0,0.0,AU,clear sky,2019-11-09 18:27:26
27,Qaanaaq,77.48,-69.36,-5.57,48,0,5.41,0.0,0.0,GL,clear sky,2019-11-09 18:27:26
28,Sitka,37.17,-99.65,73.99,20,0,3.0,0.0,0.0,US,clear sky,2019-11-09 18:27:26
29,Rikitea,-23.12,-134.97,73.42,77,100,8.66,0.0,0.12,PF,light rain,2019-11-09 18:22:38
30,Yuma,32.73,-114.62,84.0,15,1,13.87,0.0,0.0,US,clear sky,2019-11-09 18:27:27
31,Luanda,-8.83,13.24,82.4,78,40,12.75,0.0,0.0,AO,scattered clouds,2019-11-09 18:24:10
32,Saint-Philippe,45.36,-73.48,36.0,65,90,11.41,0.0,0.0,CA,overcast clouds,2019-11-09 18:22:45
33,Atuona,-9.8,-139.03,79.32,75,8,13.47,0.0,0.0,PF,clear sky,2019-11-09 18:27:27
34,Te Anau,-45.41,167.72,41.49,98,100,5.35,0.0,4.81,NZ,moderate rain,2019-11-09 18:22:59
35,Marrakesh,31.63,-7.99,64.4,24,61,5.82,0.0,0.0,MA,broken clouds,2019-11-09 18:27:28
36,Mbaiki,3.87,17.99,73.09,92,38,3.49,0.0,3.06,CF,moderate rain,2019-11-09 18:27:28
37,Makakilo City,21.35,-158.09,77.0,73,75,3.36,0.0,0.0,US,broken clouds,2019-11-09 18:27:28
38,East London,-33.02,27.91,64.4,77,40,11.41,0.0,0.0,ZA,scattered clouds,2019-11-09 18:23:59
39,Cherskiy,68.75,161.3,-0.68,84,47,3.33,0.0,0.0,RU,scattered clouds,2019-11-09 18:23:15
40,Lyman,48.98,37.82,50.05,91,6,7.78,0.0,0.0,UA,clear sky,2019-11-09 18:27:29
41,Saskylakh,71.97,114.09,-6.99,98,100,8.08,0.56,0.0,RU,light snow,2019-11-09 18:27:29
42,Yellowknife,62.45,-114.38,-9.01,69,20,6.93,0.0,0.0,CA,few clouds,2019-11-09 18:26:21
43,Chuy,-33.69,-53.46,72.0,71,86,8.77,0.0,0.0,UY,overcast clouds,2019-11-09 18:22:42
44,New Norfolk,-42.78,147.06,48.99,66,40,10.29,0.0,0.0,AU,scattered clouds,2019-11-09 18:27:30
45,Broken Hill,-31.97,141.45,53.6,58,0,12.75,0.0,0.0,AU,clear sky,2019-11-09 18:27:31
46,Ribas Do Rio Pardo,-20.45,-53.76,87.55,47,98,15.68,0.0,0.0,BR,overcast clouds,2019-11-09 18:27:31
47,Ancud,-41.87,-73.83,66.2,52,81,6.93,0.0,0.0,CL,broken clouds,2019-11-09 18:27:31
48,Vanavara,60.35,102.28,2.28,92,100,9.53,0.0,0.0,RU,overcast clouds,2019-11-09 18:27:31
49,Coquimbo,-29.95,-71.34,60.8,77,90,10.29,0.0,0.0,CL,overcast clouds,2019-11-09 18:23:19
50,Sao Filipe,14.9,-24.5,73.33,86,65,19.91,0.0,0.0,CV,broken clouds,2019-11-09 18:27:32
51,Kodiak,39.95,-94.76,60.01,51,1,5.82,0.0,0.0,US,clear sky,2019-11-09 18:22:46
52,Yurkivka,48.69,28.58,57.99,100,19,6.71,0.0,0.0,UA,fog,2019-11-09 18:27:32
53,Guymon,36.68,-101.48,75.2,16,1,6.93,0.0,0.0,US,clear sky,2019-11-09 18:27:33
54,Inhambane,-23.87,35.38,75.2,83,75,4.7,0.0,0.0,MZ,broken clouds,2019-11-09 18:27:33
55,Thompson,55.74,-97.86,5.0,71,40,5.82,0.0,0.0,CA,scattered clouds,2019-11-09 18:24:14
56,Ponta Do Sol,-20.63,-46.0,86.07,49,0,7.29,0.0,0.0,BR,clear sky,2019-11-09 18:23:38
57,Richards Bay,-28.77,32.06,69.26,74,81,12.71,0.0,0.19,ZA,light rain,2019-11-09 18:23:31
58,Hermanus,-34.42,19.24,71.01,80,6,11.01,0.0,0.0,ZA,clear sky,2019-11-09 18:27:34
59,Russell,38.9,-98.86,73.99,21,1,10.29,0.0,0.0,US,clear sky,2019-11-09 18:27:34
60,Angren,41.01,70.08,39.36,56,0,1.25,0.0,0.0,UZ,clear sky,2019-11-09 18:27:34
61,Hithadhoo,-0.6,73.08,82.02,77,18,10.22,0.0,0.0,MV,few clouds,2019-11-09 18:22:38
62,Nikolskoye,59.7,30.79,39.2,93,90,6.71,0.0,0.0,RU,mist,2019-11-09 18:27:35
63,Port Hardy,50.7,-127.42,50.0,87,90,13.87,0.0,0.0,CA,overcast clouds,2019-11-09 18:27:35
64,Hilo,19.71,-155.08,78.01,60,1,4.7,0.0,0.0,US,clear sky,2019-11-09 18:27:35
65,Shar,7.3,8.73,83.79,59,65,3.76,0.0,0.0,NG,broken clouds,2019-11-09 18:27:35
66,Goma,-1.67,29.23,57.02,96,95,0.49,0.0,0.56,CD,light rain,2019-11-09 18:27:35
67,Pizarro,4.95,-77.37,75.34,90,100,10.13,0.0,33.31,CO,heavy intensity rain,2019-11-09 18:27:36
68,Faanui,-16.48,-151.75,80.8,81,68,18.68,0.0,0.31,PF,light rain,2019-11-09 18:27:36
69,Hobart,-42.88,147.33,48.99,66,40,10.29,0.0,0.0,AU,scattered clouds,2019-11-09 18:26:47
70,Road Town,18.42,-64.62,87.8,70,20,11.41,0.0,0.0,VG,few clouds,2019-11-09 18:25:39
71,Lebu,8.96,38.73,62.6,48,40,11.41,0.0,0.0,ET,scattered clouds,2019-11-09 18:27:36
72,Amapa,15.09,-87.97,84.99,78,75,5.82,0.0,0.0,HN,broken clouds,2019-11-09 18:27:37
73,Barrow,-38.31,-60.23,70.81,33,0,12.17,0.0,0.0,AR,clear sky,2019-11-09 18:23:04
74,Cape Town,-33.93,18.42,71.01,60,0,11.41,0.0,0.0,ZA,clear sky,2019-11-09 18:23:43
75,Darhan,49.49,105.92,32.29,71,91,5.39,0.0,0.0,MN,overcast clouds,2019-11-09 18:27:37
76,Victor Harbor,-35.55,138.62,57.2,58,75,11.41,0.0,0.0,AU,broken clouds,2019-11-09 18:27:38
77,Havre-Saint-Pierre,50.23,-63.6,28.4,50,1,20.8,0.0,0.0,CA,clear sky,2019-11-09 18:27:38
78,The Valley,18.22,-63.06,89.6,70,75,14.99,0.0,0.0,AI,broken clouds,2019-11-09 18:27:38
79,Verkhnyaya Inta,65.99,60.32,6.94,96,93,9.86,0.0,0.0,RU,overcast clouds,2019-11-09 18:27:38
80,Beringovskiy,63.05,179.32,22.98,94,100,9.66,0.13,0.0,RU,light snow,2019-11-09 18:27:39
81,Skjervoy,70.03,20.97,28.53,50,0,7.56,0.0,0.0,NO,clear sky,2019-11-09 18:27:39
82,Kalmunai,7.42,81.82,81.77,80,95,16.04,0.0,0.63,LK,light rain,2019-11-09 18:27:39
83,Westport,41.14,-73.36,41.0,40,1,5.82,0.0,0.0,US,clear sky,2019-11-09 18:24:50
84,Oudtshoorn,-33.59,22.2,62.6,82,20,17.22,0.0,0.0,ZA,few clouds,2019-11-09 18:27:40
85,Grand Gaube,-20.01,57.66,73.99,83,75,5.82,0.0,0.0,MU,broken clouds,2019-11-09 18:27:40
86,La Ronge,55.1,-105.3,12.2,61,75,12.75,0.0,0.0,CA,broken clouds,2019-11-09 18:27:40
87,Terrak,65.09,12.37,23.0,62,0,10.29,0.0,0.0,NO,clear sky,2019-11-09 18:27:40
88,Bonthe,7.53,-12.5,82.53,73,32,6.17,0.0,0.38,SL,light rain,2019-11-09 18:27:40
89,Necochea,-38.55,-58.74,57.99,73,0,14.0,0.0,0.0,AR,clear sky,2019-11-09 18:27:41
90,Chokurdakh,70.62,147.9,-10.74,99,100,4.36,0.0,0.0,RU,overcast clouds,2019-11-09 18:27:41
91,Itarema,-2.92,-39.92,90.9,42,77,16.35,0.0,0.0,BR,broken clouds,2019-11-09 18:27:41
92,Pacifica,37.61,-122.49,60.01,87,90,3.83,0.0,0.0,US,fog,2019-11-09 18:23:46
93,Isangel,-19.55,169.27,73.96,81,25,4.72,0.0,0.38,VU,light rain,2019-11-09 18:27:42
94,Esperance,-33.86,121.89,71.6,24,15,19.46,0.0,0.0,AU,few clouds,2019-11-09 18:27:42
95,Port-Gentil,-0.72,8.78,75.2,100,90,14.99,0.0,0.0,GA,light rain,2019-11-09 18:27:42
96,Lompoc,34.64,-120.46,73.0,55,1,6.82,0.0,0.0,US,clear sky,2019-11-09 18:27:38
97,Bontang,0.12,117.47,78.1,82,93,8.16,0.0,0.0,ID,overcast clouds,2019-11-09 18:27:43
98,Mahebourg,-20.41,57.7,73.99,83,75,5.82,0.0,0.0,MU,broken clouds,2019-11-09 18:27:43
99,Lavrentiya,65.58,-170.99,34.59,98,100,6.08,0.0,1.44,RU,light rain,2019-11-09 18:27:12
100,Coihaique,-45.58,-72.07,64.4,45,40,4.7,0.0,0.0,CL,scattered clouds,2019-11-09 18:27:43
101,Breves,-1.68,-50.48,94.17,42,68,3.91,0.0,0.0,BR,broken clouds,2019-11-09 18:27:44
102,Tuatapere,-46.13,167.69,48.99,92,100,5.01,0.0,6.63,NZ,moderate rain,2019-11-09 18:27:44
103,Ajdabiya,30.75,20.22,76.78,29,62,13.29,0.0,0.0,LY,broken clouds,2019-11-09 18:27:44
104,Vila Franca Do Campo,37.72,-25.43,68.0,72,20,6.93,0.0,0.0,PT,few clouds,2019-11-09 18:27:45
105,Gat,14.69,-16.54,98.6,22,57,6.93,0.0,0.0,SN,broken clouds,2019-11-09 18:27:45
106,Katsuura,33.93,134.5,59.0,67,75,13.87,0.0,0.0,JP,broken clouds,2019-11-09 18:27:45
107,Konongo,6.62,-1.21,77.27,82,80,1.83,0.0,0.94,GH,light rain,2019-11-09 18:27:45
108,Kaitangata,-46.28,169.85,50.0,94,93,11.01,0.0,6.06,NZ,moderate rain,2019-11-09 18:27:45
109,Tommot,58.97,126.27,6.93,96,100,2.17,0.44,0.0,RU,light snow,2019-11-09 18:27:46
110,Wanning,48.64,13.53,39.99,93,90,2.24,0.0,0.0,AT,overcast clouds,2019-11-09 18:27:46
111,Ribeira Grande,38.52,-28.7,68.0,68,20,4.7,0.0,0.0,PT,few clouds,2019-11-09 18:26:37
112,Sorong,-0.86,131.25,72.3,98,87,0.96,0.0,1.13,ID,light rain,2019-11-09 18:27:46
113,Rongcheng,37.16,122.42,52.0,77,100,1.01,0.0,0.0,CN,overcast clouds,2019-11-09 18:27:46
114,Kahului,20.89,-156.47,77.0,83,20,3.36,0.0,0.0,US,few clouds,2019-11-09 18:26:03
115,Caravelas,-17.73,-39.27,83.35,59,1,16.13,0.0,0.0,BR,clear sky,2019-11-09 18:27:47
116,Norman Wells,65.28,-126.83,-2.21,84,40,5.82,0.0,0.0,CA,scattered clouds,2019-11-09 18:27:47
117,Sao Luiz Gonzaga,-28.41,-54.96,88.63,52,12,4.38,0.0,0.38,BR,light rain,2019-11-09 18:27:47
118,Udachnyy,66.42,112.4,-2.21,84,90,4.47,0.0,0.0,RU,light snow,2019-11-09 18:23:20
119,Naze,5.43,7.07,82.69,71,83,2.13,0.0,0.75,NG,light rain,2019-11-09 18:27:48
120,Ola,59.58,151.3,20.48,61,100,18.28,0.0,0.0,RU,overcast clouds,2019-11-09 18:27:48
121,Ferkessedougou,9.6,-5.2,83.26,51,24,4.05,0.0,0.0,CI,few clouds,2019-11-09 18:27:48
122,Yabelo,4.89,38.09,66.92,80,41,7.25,0.0,1.31,ET,light rain,2019-11-09 18:27:49
123,Roald,62.58,6.12,32.0,55,0,13.87,0.0,0.0,NO,clear sky,2019-11-09 18:27:49
124,Tasiilaq,65.61,-37.64,37.4,64,100,29.97,0.0,0.0,GL,light intensity drizzle,2019-11-09 18:27:49
125,Laguna,16.17,-88.94,84.2,70,40,4.7,0.0,0.0,BZ,scattered clouds,2019-11-09 18:27:49
126,Avera,33.19,-82.53,54.0,37,1,6.93,0.0,0.0,US,clear sky,2019-11-09 18:27:49
127,Kapaa,22.08,-159.32,71.6,93,75,11.41,0.0,0.0,US,moderate rain,2019-11-09 18:26:33
128,Tuktoyaktuk,69.44,-133.03,1.4,77,20,19.46,0.0,0.0,CA,few clouds,2019-11-09 18:23:57
129,Bilibino,68.06,166.44,0.16,63,0,2.62,0.0,0.0,RU,clear sky,2019-11-09 18:27:50
130,Krapkowice,50.47,17.97,48.0,100,100,2.21,0.0,0.0,PL,overcast clouds,2019-11-09 18:27:50
131,Butaritari,3.07,172.79,83.86,67,100,4.7,0.0,0.0,KI,overcast clouds,2019-11-09 18:27:51
132,Santa Maria,-16.02,-48.01,91.4,29,40,14.99,0.0,0.0,BR,scattered clouds,2019-11-09 18:27:51
133,Cabo San Lucas,22.89,-109.91,90.0,48,40,6.93,0.0,0.0,MX,scattered clouds,2019-11-09 18:27:51
134,Panzhihua,26.59,101.72,56.41,86,28,1.45,0.0,0.0,CN,scattered clouds,2019-11-09 18:27:51
135,Waipawa,-39.94,176.59,53.01,91,33,3.0,0.0,0.0,NZ,scattered clouds,2019-11-09 18:23:38
136,Avarua,-21.21,-159.78,73.4,83,43,12.75,0.0,0.12,CK,light rain,2019-11-09 18:27:52
137,Souillac,45.6,-0.6,48.2,93,100,12.75,0.0,4.13,FR,moderate rain,2019-11-09 18:27:52
138,Mecca,21.43,39.83,82.44,50,0,1.83,0.0,0.0,SA,clear sky,2019-11-09 18:25:57
139,Hauterive,49.18,-68.27,28.4,36,75,17.22,0.0,0.0,CA,broken clouds,2019-11-09 18:27:53
140,Goure,13.98,10.27,89.01,14,5,1.99,0.0,0.0,NE,clear sky,2019-11-09 18:27:53
141,Touros,-5.2,-35.46,86.0,55,40,13.87,0.0,0.0,BR,scattered clouds,2019-11-09 18:27:53
142,Oga,46.46,10.35,33.8,92,36,2.24,0.0,0.0,IT,scattered clouds,2019-11-09 18:27:54
143,Codrington,-28.95,153.24,57.99,81,0,4.7,0.0,0.0,AU,clear sky,2019-11-09 18:27:54
144,Khatanga,71.98,102.47,-2.98,96,100,13.15,0.38,0.0,RU,light snow,2019-11-09 18:24:06
145,Klaksvik,62.23,-6.59,37.4,86,100,11.41,0.0,0.0,FO,overcast clouds,2019-11-09 18:27:54
146,Puerto Ayora,-0.74,-90.35,78.8,65,40,16.11,0.0,0.0,EC,scattered clouds,2019-11-09 18:27:18
147,Provideniya,64.42,-173.23,33.13,98,100,3.56,0.0,0.69,RU,light rain,2019-11-09 18:27:55
148,Phan Thiet,10.93,108.1,71.85,96,100,2.71,0.0,0.0,VN,overcast clouds,2019-11-09 18:27:55
149,Pevek,69.7,170.27,5.2,91,54,7.14,0.0,0.0,RU,broken clouds,2019-11-09 18:26:31
150,Nouadhibou,20.93,-17.03,71.6,64,73,17.22,0.0,0.0,MR,dust,2019-11-09 18:27:56
151,Tiksi,71.64,128.87,-11.4,97,85,5.19,0.0,0.0,RU,overcast clouds,2019-11-09 18:27:56
152,Jacqueville,5.21,-4.42,84.2,79,20,8.05,0.0,0.0,CI,few clouds,2019-11-09 18:27:56
153,Halifax,44.65,-63.58,37.99,68,40,9.17,0.0,0.0,CA,light rain,2019-11-09 18:26:40
154,Lagos,6.46,3.39,80.6,94,40,4.7,0.0,0.0,NG,thunderstorm,2019-11-09 18:27:57
155,Ilhabela,-23.78,-45.36,74.61,89,90,20.02,0.0,0.19,BR,light rain,2019-11-09 18:24:25
156,Vidim,50.47,14.53,42.8,80,40,12.75,0.0,0.0,CZ,scattered clouds,2019-11-09 18:27:57
157,Kluang,2.04,103.32,75.2,94,75,1.61,0.0,0.0,MY,broken clouds,2019-11-09 18:27:58
158,Sao Gabriel Da Cachoeira,-0.13,-67.09,89.6,59,40,5.82,0.0,0.0,BR,scattered clouds,2019-11-09 18:27:58
159,Sergeyevka,53.88,67.42,22.68,51,50,10.69,0.0,0.0,KZ,scattered clouds,2019-11-09 18:27:58
160,Los Llanos De Aridane,28.66,-17.92,69.8,68,75,20.8,0.0,0.0,ES,broken clouds,2019-11-09 18:27:59
161,Paris,48.86,2.35,44.01,87,90,9.17,0.0,0.0,FR,overcast clouds,2019-11-09 18:26:55
162,Urusha,54.05,122.9,5.74,96,99,3.58,0.0,0.0,RU,overcast clouds,2019-11-09 18:27:59
163,Nome,30.04,-94.42,63.0,33,1,3.36,0.0,0.0,US,clear sky,2019-11-09 18:24:31
164,Salalah,17.01,54.1,80.6,74,40,3.36,0.0,0.0,OM,scattered clouds,2019-11-09 18:26:20
165,Victoria,5.28,115.24,78.01,88,75,3.36,0.0,0.0,BN,broken clouds,2019-11-09 18:28:00
166,Ginir,7.14,40.71,58.89,95,99,0.09,0.0,2.94,ET,light rain,2019-11-09 18:28:00
167,Abalak,15.46,6.28,88.59,10,25,7.25,0.0,0.0,NE,scattered clouds,2019-11-09 18:28:00
168,Varhaug,58.61,5.65,33.01,59,40,5.17,0.0,0.0,NO,scattered clouds,2019-11-09 18:28:00
169,Bambous Virieux,-20.34,57.76,73.99,83,75,5.82,0.0,0.0,MU,broken clouds,2019-11-09 18:28:01
170,Iracoubo,5.48,-53.21,82.76,78,21,12.71,0.0,0.0,GF,few clouds,2019-11-09 18:28:01
171,Cockburn Town,21.46,-71.14,86.0,66,40,11.41,0.0,0.0,TC,scattered clouds,2019-11-09 18:28:01
172,Saint-Pierre,48.95,4.24,41.0,100,20,10.29,0.0,0.0,FR,few clouds,2019-11-09 18:28:02
173,Hinton,53.4,-117.57,11.41,92,100,3.87,0.81,0.0,CA,light snow,2019-11-09 18:28:02
174,Sterling,39.0,-77.4,45.0,56,1,6.93,0.0,0.0,US,clear sky,2019-11-09 18:25:24
175,Severo-Kurilsk,50.68,156.12,32.2,85,83,26.06,2.19,0.0,RU,snow,2019-11-09 18:28:02
176,Ixtapa,20.71,-105.21,88.0,66,5,5.82,0.0,0.0,MX,clear sky,2019-11-09 18:28:03
177,Fortuna,40.6,-124.16,53.01,93,90,0.54,0.0,0.0,US,overcast clouds,2019-11-09 18:28:03
178,Follonica,42.93,10.76,52.0,87,75,4.7,0.0,0.0,IT,light rain,2019-11-09 18:28:04
179,Srandakan,-7.94,110.25,74.79,87,59,2.55,0.0,0.0,ID,broken clouds,2019-11-09 18:28:04
180,Vao,59.1,26.19,41.36,97,100,5.97,0.0,0.19,EE,light rain,2019-11-09 18:23:42
181,Osypenko,48.04,34.39,52.0,87,0,11.18,0.0,0.0,UA,mist,2019-11-09 18:28:04
182,Mayo,63.59,-135.9,-20.21,75,20,3.36,0.0,0.0,CA,few clouds,2019-11-09 18:28:04
183,Saint George,39.45,22.34,59.0,87,40,4.7,0.0,0.0,GR,scattered clouds,2019-11-09 18:27:50
184,Kokopo,-4.34,152.27,80.02,83,100,9.64,0.0,4.06,PG,moderate rain,2019-11-09 18:28:05
185,Carutapera,-1.2,-46.02,81.99,76,62,10.78,0.0,0.0,BR,broken clouds,2019-11-09 18:28:05
186,Georgetown,6.8,-58.16,91.4,74,20,13.87,0.0,0.0,GY,few clouds,2019-11-09 18:28:05
187,Cidreira,-30.17,-50.22,71.42,84,8,21.68,0.0,0.0,BR,clear sky,2019-11-09 18:27:05
188,Pemba,-12.97,40.52,80.6,69,75,9.17,0.0,0.0,MZ,broken clouds,2019-11-09 18:27:25
189,Poum,41.28,20.71,51.8,87,90,2.24,0.0,0.0,MK,overcast clouds,2019-11-09 18:28:06
190,Paraiso,-0.03,-51.17,95.0,53,75,12.75,0.0,0.0,BR,broken clouds,2019-11-09 18:28:06
191,Mount Isa,-20.73,139.49,62.6,17,84,3.36,0.0,0.0,AU,broken clouds,2019-11-09 18:25:11
192,Abu Dhabi,24.47,54.37,80.6,65,52,6.93,0.0,0.0,AE,broken clouds,2019-11-09 18:27:35
193,Valle Del Guamuez,0.45,-76.92,84.2,70,75,11.41,0.0,0.0,CO,broken clouds,2019-11-09 18:28:07
194,Mirnyy,56.57,36.46,40.87,85,100,9.13,0.0,0.44,RU,light rain,2019-11-09 18:28:07
195,Houma,35.63,111.36,45.25,72,17,5.57,0.0,0.0,CN,few clouds,2019-11-09 18:28:07
196,Kattivakkam,13.22,80.32,84.0,83,40,3.29,0.0,0.0,IN,mist,2019-11-09 18:28:08
197,Sharjah,25.36,55.39,80.6,47,0,12.75,0.0,0.0,AE,clear sky,2019-11-09 18:28:08
198,Moundou,8.57,16.07,81.95,43,99,3.94,0.0,0.0,TD,overcast clouds,2019-11-09 18:28:08
199,Komsomolskiy,67.55,63.78,-0.64,99,96,0.74,0.13,0.0,RU,light snow,2019-11-09 18:28:08
200,Huilong,31.15,106.5,57.24,82,98,1.39,0.0,0.0,CN,overcast clouds,2019-11-09 18:28:09
201,Saldanha,41.42,-6.55,44.04,96,91,8.57,0.0,0.0,PT,overcast clouds,2019-11-09 18:26:49
202,Suoyarvi,62.08,32.35,35.06,98,100,5.88,0.0,0.63,RU,light rain,2019-11-09 18:28:09
203,Chapais,49.78,-74.86,14.0,85,90,9.17,0.0,0.0,CA,light snow,2019-11-09 18:28:09
204,Plettenberg Bay,-34.05,23.37,63.82,75,94,19.6,0.0,0.0,ZA,overcast clouds,2019-11-09 18:23:41
205,Tottori,35.5,134.23,52.66,76,43,8.19,0.0,0.19,JP,light rain,2019-11-09 18:28:10
206,Abu Samrah,35.3,37.18,67.64,28,0,7.94,0.0,0.0,SY,clear sky,2019-11-09 18:28:10
207,Svetlogorsk,53.14,59.15,12.2,85,1,2.24,0.0,0.0,RU,fog,2019-11-09 18:28:10
208,Ashland,38.48,-82.64,48.0,48,75,5.82,0.0,0.0,US,broken clouds,2019-11-09 18:28:10
209,Dingle,11.0,122.67,73.62,81,73,1.97,0.0,0.0,PH,broken clouds,2019-11-09 18:28:11
210,Yining,29.04,114.56,54.09,68,98,1.1,0.0,0.0,CN,overcast clouds,2019-11-09 18:28:11
211,Belmonte,40.36,-7.35,53.01,96,100,1.99,0.0,0.06,PT,overcast clouds,2019-11-09 18:28:11
212,Carnarvon,-30.97,22.13,75.94,17,100,16.62,0.0,0.0,ZA,overcast clouds,2019-11-09 18:28:11
213,Gravelbourg,49.88,-106.56,23.99,85,100,15.52,1.38,0.0,CA,light snow,2019-11-09 18:28:12
214,Warmbad,50.67,13.08,42.8,87,100,8.05,0.0,0.0,DE,overcast clouds,2019-11-09 18:28:12
215,Lukovetskiy,64.29,41.92,21.2,92,90,6.71,0.0,0.0,RU,light snow,2019-11-09 18:28:12
216,Torbay,47.66,-52.73,37.0,55,75,33.33,0.0,0.0,CA,broken clouds,2019-11-09 18:25:49
217,Hovd,63.83,10.7,26.6,68,75,6.93,0.0,0.0,NO,broken clouds,2019-11-09 18:28:12
218,Meulaboh,4.14,96.13,81.86,74,99,5.32,0.0,0.19,ID,light rain,2019-11-09 18:26:46
219,Pouebo,-20.4,164.57,62.28,92,3,2.33,0.0,0.0,NC,clear sky,2019-11-09 18:28:13
220,Upernavik,72.79,-56.15,10.35,77,58,8.97,0.0,0.0,GL,broken clouds,2019-11-09 18:28:13
221,Los Andes,-32.83,-70.6,93.99,12,0,11.41,0.0,0.0,CL,clear sky,2019-11-09 18:28:13
222,Leningradskiy,69.38,178.42,18.54,67,69,8.59,0.0,0.0,RU,broken clouds,2019-11-09 18:28:13
223,Sinnamary,5.38,-52.96,82.76,78,21,12.71,0.0,0.0,GF,few clouds,2019-11-09 18:23:17
224,Lagoa,37.14,-8.45,62.6,77,40,13.87,0.0,0.0,PT,scattered clouds,2019-11-09 18:28:14
225,Makinsk,52.63,70.42,20.21,92,100,19.3,0.81,0.0,KZ,light snow,2019-11-09 18:28:14
226,Chinsali,-10.55,32.07,79.52,40,35,6.64,0.0,0.0,ZM,scattered clouds,2019-11-09 18:28:15
227,Port Elizabeth,39.31,-74.98,46.0,26,1,3.36,0.0,0.0,US,clear sky,2019-11-09 18:28:15
228,Ineu,46.43,21.84,59.0,76,88,5.82,0.0,0.0,RO,overcast clouds,2019-11-09 18:28:15
229,Faya,18.39,42.45,60.8,63,40,9.17,0.0,0.0,SA,scattered clouds,2019-11-09 18:28:15
230,Chara,39.42,22.43,59.0,87,40,4.7,0.0,0.0,GR,scattered clouds,2019-11-09 18:28:16
231,La Union,14.97,-89.29,78.01,50,5,5.99,0.0,0.19,GT,light rain,2019-11-09 18:28:16
232,Narsaq,60.91,-46.05,44.6,30,75,39.15,0.0,0.0,GL,light rain,2019-11-09 18:28:16
233,Shestakovo,56.49,103.96,14.16,84,100,11.23,0.0,0.0,RU,overcast clouds,2019-11-09 18:28:17
234,Newport,51.59,-3.0,45.0,93,75,2.24,0.0,0.0,GB,mist,2019-11-09 18:24:37
235,Tecoanapa,16.99,-99.26,89.6,59,5,0.63,0.0,0.0,MX,clear sky,2019-11-09 18:28:17
236,Lichinga,-13.3,35.25,76.14,53,25,5.39,0.0,0.0,MZ,scattered clouds,2019-11-09 18:28:17
237,Namatanai,-3.66,152.44,83.59,69,100,6.31,0.0,6.63,PG,moderate rain,2019-11-09 18:28:18
238,Cabedelo,-6.97,-34.84,84.2,62,40,14.99,0.0,0.0,BR,scattered clouds,2019-11-09 18:28:18
239,Tongliao,43.61,122.27,46.2,68,100,12.97,0.0,0.0,CN,overcast clouds,2019-11-09 18:28:18
240,Cayenne,4.94,-52.33,89.6,66,5,12.75,0.0,0.0,GF,clear sky,2019-11-09 18:28:18
241,Longyearbyen,78.22,15.63,24.8,73,90,23.04,0.0,0.0,NO,light snow,2019-11-09 18:28:19
242,Giyani,-23.32,30.73,71.6,65,61,9.44,0.0,0.0,ZA,broken clouds,2019-11-09 18:28:19
243,Qasigiannguit,68.82,-51.19,39.2,29,75,21.92,0.0,0.0,GL,broken clouds,2019-11-09 18:28:19
244,Rawson,-43.3,-65.11,52.81,80,0,18.61,0.0,0.0,AR,clear sky,2019-11-09 18:28:19
245,Sorland,67.67,12.69,32.41,65,61,16.75,0.0,0.0,NO,broken clouds,2019-11-09 18:28:20
246,Aguazul,5.17,-72.55,91.15,57,40,1.3,0.0,0.0,CO,scattered clouds,2019-11-09 18:28:20
247,Constitucion,23.99,-104.67,69.8,49,20,4.7,0.0,0.0,MX,few clouds,2019-11-09 18:28:20
248,Tongchuan,34.9,108.95,42.8,100,0,6.71,0.0,0.0,CN,clear sky,2019-11-09 18:28:20
249,Taoudenni,22.68,-3.98,78.73,15,52,11.65,0.0,0.0,ML,broken clouds,2019-11-09 18:28:21
250,Guerrero Negro,27.97,-114.04,79.48,39,100,6.22,0.0,0.0,MX,overcast clouds,2019-11-09 18:28:21
251,Margate,-43.03,147.26,48.99,66,40,10.29,0.0,0.0,AU,scattered clouds,2019-11-09 18:28:21
252,Padang,-0.92,100.36,67.71,96,99,1.36,0.0,0.0,ID,overcast clouds,2019-11-09 18:25:21
253,Manchester,43.0,-71.45,41.0,27,20,4.7,0.0,0.0,US,few clouds,2019-11-09 18:26:52
254,Santa Cruz,-6.22,-36.02,90.72,39,53,14.14,0.0,0.0,BR,broken clouds,2019-11-09 18:28:22
255,Griffith,-34.29,146.06,51.8,66,0,8.05,0.0,0.0,AU,clear sky,2019-11-09 18:28:22
256,Sioux Lookout,50.1,-91.92,24.8,85,90,8.05,0.0,0.0,CA,light snow,2019-11-09 18:23:29
257,Martinez,38.01,-122.13,64.99,71,1,4.7,0.0,0.0,US,haze,2019-11-09 18:25:35
258,Kodinsk,58.6,99.18,6.89,84,100,12.68,0.0,0.0,RU,overcast clouds,2019-11-09 18:28:22
259,Avila,38.91,-76.61,45.0,44,1,7.29,0.0,0.0,US,clear sky,2019-11-09 18:28:23
260,Dourados,-22.22,-54.81,85.64,57,70,9.62,0.0,1.06,BR,light rain,2019-11-09 18:28:23
261,Okha,53.59,142.95,25.12,81,94,22.35,0.0,0.0,RU,overcast clouds,2019-11-09 18:27:46
262,Ghanzi,-21.7,21.65,85.37,24,76,9.44,0.0,0.0,BW,broken clouds,2019-11-09 18:28:23
263,Talara,-4.58,-81.27,62.6,100,71,13.87,0.0,0.0,PE,broken clouds,2019-11-09 18:28:24
264,Riwaka,-41.08,173.0,61.0,94,100,7.0,0.0,17.25,NZ,heavy intensity rain,2019-11-09 18:28:24
265,Kozhva,65.11,57.05,5.04,96,69,4.05,0.0,0.0,RU,broken clouds,2019-11-09 18:28:24
266,Meadow Lake,54.13,-108.44,15.8,61,75,11.41,0.0,0.0,CA,broken clouds,2019-11-09 18:28:25
267,Lenina,48.44,39.15,48.76,91,44,7.72,0.0,0.0,UA,scattered clouds,2019-11-09 18:28:25
268,Haines Junction,60.75,-137.51,-2.24,94,0,7.09,0.0,0.0,CA,clear sky,2019-11-09 18:28:25
269,Itoman,26.12,127.67,69.8,52,20,9.17,0.0,0.0,JP,few clouds,2019-11-09 18:28:26
270,Talwandi Bhai,30.86,74.93,65.95,40,0,2.06,0.0,0.0,IN,clear sky,2019-11-09 18:28:26
271,Nola,3.52,16.05,71.76,96,94,2.66,0.0,3.25,CF,moderate rain,2019-11-09 18:28:26
272,Zhigansk,66.77,123.37,5.94,87,100,19.55,0.19,0.0,RU,light snow,2019-11-09 18:28:27
273,Karaton,-6.34,106.1,78.8,69,20,3.36,0.0,0.0,ID,few clouds,2019-11-09 18:28:27
274,Bilma,18.69,12.92,78.57,12,19,5.21,0.0,0.0,NE,few clouds,2019-11-09 18:28:27
275,Kosum Phisai,16.25,103.07,68.0,77,100,3.36,0.0,0.0,TH,overcast clouds,2019-11-09 18:28:28
276,Pimentel,-3.7,-45.5,90.75,49,96,4.79,0.0,0.0,BR,overcast clouds,2019-11-09 18:28:28
277,Presidencia Roque Saenz Pena,-26.79,-60.44,86.5,53,100,10.4,0.0,0.0,AR,overcast clouds,2019-11-09 18:28:28
278,Leverkusen,51.03,6.99,44.01,93,69,8.05,0.0,0.13,DE,light rain,2019-11-09 18:28:28
279,Khandyga,62.65,135.58,-23.34,97,0,1.83,0.0,0.0,RU,clear sky,2019-11-09 18:28:29
280,Dubbo,-32.25,148.6,50.0,71,3,6.93,0.0,0.0,AU,clear sky,2019-11-09 18:28:29
281,Marzuq,14.4,46.47,69.28,56,0,6.71,0.0,0.0,YE,clear sky,2019-11-09 18:28:29
282,Luderitz,-26.65,15.16,62.6,82,41,11.41,0.0,0.0,NA,scattered clouds,2019-11-09 18:27:10
283,Clyde River,70.47,-68.59,21.2,85,90,21.92,0.0,0.0,CA,light snow,2019-11-09 18:25:15
284,Metro,-5.11,105.31,73.27,77,8,6.89,0.0,0.0,ID,clear sky,2019-11-09 18:28:30
285,Marsa Matruh,31.35,27.25,71.6,68,0,3.36,0.0,0.0,EG,clear sky,2019-11-09 18:28:30
286,Pauini,-7.71,-67.0,95.99,41,68,3.65,0.0,0.0,BR,broken clouds,2019-11-09 18:28:30
287,Mount Gambier,-37.83,140.78,50.0,87,90,9.17,0.0,0.0,AU,overcast clouds,2019-11-09 18:28:31
288,Emerald,-23.53,148.16,64.4,18,12,6.93,0.0,0.0,AU,few clouds,2019-11-09 18:28:31
289,Muisne,0.61,-80.02,86.0,70,40,9.17,0.0,0.0,EC,scattered clouds,2019-11-09 18:28:31
290,Shellbrook,53.22,-106.39,15.8,56,75,13.87,0.0,0.0,CA,light snow,2019-11-09 18:28:31
291,Usinsk,66.0,57.56,3.27,99,83,5.88,0.0,0.0,RU,broken clouds,2019-11-09 18:28:32
292,Terney,45.05,136.61,20.93,49,13,5.26,0.0,0.0,RU,few clouds,2019-11-09 18:28:32
293,Ambilobe,-13.19,49.05,77.79,73,60,9.1,0.0,0.19,MG,light rain,2019-11-09 18:28:32
294,Redmond,47.67,-122.12,50.0,93,90,3.36,0.0,0.0,US,light rain,2019-11-09 18:28:32
295,Arraial Do Cabo,-22.97,-42.02,80.6,78,75,14.99,0.0,0.0,BR,broken clouds,2019-11-09 18:28:32
296,West Sacramento,38.58,-121.53,73.99,36,0,4.54,0.0,0.0,US,clear sky,2019-11-09 18:28:17
297,Lisala,2.15,21.52,72.27,97,96,2.82,0.0,0.0,CD,overcast clouds,2019-11-09 18:28:33
298,Bali,32.29,119.4,55.99,73,66,1.01,0.0,0.0,CN,broken clouds,2019-11-09 18:28:33
299,Merauke,-8.49,140.4,71.51,86,100,4.12,0.0,0.0,ID,overcast clouds,2019-11-09 18:28:33
300,Yulara,-25.24,130.99,66.2,22,0,9.17,0.0,0.0,AU,clear sky,2019-11-09 18:28:34
301,La Rioja,-29.41,-66.86,77.86,45,6,10.78,0.0,0.0,AR,clear sky,2019-11-09 18:28:34
302,Ndioum,16.51,-14.65,102.2,18,91,2.24,0.0,0.0,SN,overcast clouds,2019-11-09 18:28:34
303,Worcester,52.19,-2.22,41.0,100,75,4.7,0.0,0.0,GB,moderate rain,2019-11-09 18:28:34
304,Kushtagi,15.76,76.19,74.82,68,5,5.08,0.0,0.0,IN,clear sky,2019-11-09 18:28:34
305,Chifeng,42.27,118.96,42.46,63,100,7.2,0.0,0.19,CN,light rain,2019-11-09 18:28:35
306,San Alberto,-24.98,-54.91,91.4,52,75,5.82,0.0,0.0,PY,broken clouds,2019-11-09 18:28:35
307,Adeje,5.68,5.76,78.84,88,91,7.0,0.0,2.56,NG,light rain,2019-11-09 18:28:35
308,Port Blair,11.67,92.75,81.81,74,5,2.46,0.0,0.0,IN,clear sky,2019-11-09 18:24:08
309,Saint-Joseph,43.56,6.97,53.6,87,6,2.24,0.0,0.0,FR,clear sky,2019-11-09 18:28:35
310,Bahia Blanca,-38.72,-62.27,77.49,19,0,7.65,0.0,0.0,AR,clear sky,2019-11-09 18:25:06
311,Pundaguitan,6.37,126.17,81.54,75,92,2.73,0.0,2.06,PH,light rain,2019-11-09 18:28:36
312,Toamasina,-18.17,49.38,75.2,94,40,5.82,0.0,0.0,MG,shower rain,2019-11-09 18:28:36
313,Iqaluit,63.75,-68.52,3.2,77,40,6.93,0.0,0.0,CA,scattered clouds,2019-11-09 18:25:39
314,Hamilton,43.26,-79.87,39.99,64,90,24.16,0.0,0.0,CA,overcast clouds,2019-11-09 18:26:19
315,Kavieng,-2.57,150.8,79.39,81,100,6.78,0.0,3.31,PG,moderate rain,2019-11-09 18:28:37
316,Bulgan,48.81,103.53,30.06,63,56,10.85,0.0,0.0,MN,broken clouds,2019-11-09 18:28:37
317,Cairns,-16.92,145.77,64.99,88,64,6.22,0.0,0.0,AU,broken clouds,2019-11-09 18:28:37
318,San Policarpo,12.18,125.51,76.95,85,14,5.55,0.0,0.0,PH,few clouds,2019-11-09 18:28:38
319,Urbano Santos,-3.2,-43.39,90.81,44,99,5.99,0.0,0.0,BR,overcast clouds,2019-11-09 18:28:38
320,Sao Joao Da Barra,-21.64,-41.05,86.0,62,20,16.11,0.0,0.0,BR,few clouds,2019-11-09 18:27:40
321,Zeya,53.74,127.27,0.09,92,3,5.21,0.0,0.0,RU,clear sky,2019-11-09 18:28:38
322,Hasaki,35.73,140.83,48.2,87,75,8.05,0.0,0.0,JP,broken clouds,2019-11-09 18:24:01
323,Ulaangom,49.98,92.07,26.87,87,18,2.82,0.0,0.0,MN,few clouds,2019-11-09 18:28:39
324,Luganville,-15.51,167.18,75.2,88,40,2.24,0.0,0.0,VU,scattered clouds,2019-11-09 18:28:39
325,Austin,30.27,-97.74,64.99,48,1,2.55,0.0,0.0,US,clear sky,2019-11-09 18:27:54
326,Khotynets,53.13,35.4,45.0,82,91,13.73,0.0,0.0,RU,overcast clouds,2019-11-09 18:28:40
327,Sarangani,5.4,125.46,82.69,76,97,11.23,0.0,2.06,PH,light rain,2019-11-09 18:28:41
328,Kirovsk,67.62,33.66,14.86,93,100,4.68,0.0,0.0,RU,overcast clouds,2019-11-09 18:28:41
329,Athabasca,54.72,-113.29,15.62,92,100,7.25,1.0,0.0,CA,light snow,2019-11-09 18:28:41
330,Pisco,-13.71,-76.2,71.6,30,37,11.41,0.0,0.0,PE,scattered clouds,2019-11-09 18:28:41
331,Cikupa,-7.49,108.52,72.25,83,7,1.57,0.0,0.0,ID,clear sky,2019-11-09 18:28:42
332,Sfantu Gheorghe,44.65,26.83,64.0,81,5,4.7,0.0,0.0,RO,clear sky,2019-11-09 18:28:42
333,Port Lincoln,-34.72,135.86,49.57,87,0,3.74,0.0,0.0,AU,clear sky,2019-11-09 18:28:42
334,Sur,22.57,59.53,73.71,56,0,3.04,0.0,0.0,OM,clear sky,2019-11-09 18:28:43
335,Northam,-31.65,116.67,66.2,82,90,8.05,0.0,0.0,AU,overcast clouds,2019-11-09 18:28:43
336,Slonim,53.09,25.32,51.53,91,96,7.85,0.0,0.0,BY,overcast clouds,2019-11-09 18:28:43
337,Arlit,18.74,7.39,91.98,8,27,6.64,0.0,0.0,NE,scattered clouds,2019-11-09 18:28:43
338,Vestmannaeyjar,63.44,-20.27,41.0,80,90,4.7,0.0,0.0,IS,moderate rain,2019-11-09 18:28:44
339,Burnie,-41.05,145.91,51.01,87,99,3.0,0.0,0.25,AU,light rain,2019-11-09 18:28:44
340,Aden,12.79,45.03,79.95,66,0,12.06,0.0,0.0,YE,clear sky,2019-11-09 18:28:44
341,Bereznehuvate,47.31,32.85,58.05,73,0,8.5,0.0,0.0,UA,clear sky,2019-11-09 18:28:44
342,Staryy Nadym,65.61,72.68,-4.15,98,83,6.85,0.0,0.0,RU,broken clouds,2019-11-09 18:28:45
343,Nanortalik,60.14,-45.24,36.57,72,100,51.79,1.13,0.0,GL,light snow,2019-11-09 18:27:01
344,Saint-Denis,48.94,2.36,44.01,87,75,10.29,0.0,0.0,FR,broken clouds,2019-11-09 18:28:45
345,Calvia,39.57,2.51,60.01,62,36,5.82,0.0,0.0,ES,scattered clouds,2019-11-09 18:28:45
346,Pushkino,56.01,37.85,39.2,100,90,15.66,0.0,0.0,RU,light rain,2019-11-09 18:28:46
347,Corinth,37.94,22.93,69.01,77,75,3.36,0.0,0.0,GR,broken clouds,2019-11-09 18:28:46
348,San Jose,14.25,-87.96,76.03,59,34,8.86,0.0,0.0,HN,scattered clouds,2019-11-09 18:24:37
349,Bull Savanna,17.89,-77.59,84.36,62,6,4.7,0.0,0.13,JM,light rain,2019-11-09 18:28:46
350,Egvekinot,66.32,-179.17,12.76,90,7,2.01,0.0,0.0,RU,clear sky,2019-11-09 18:28:47
351,Dogondoutchi,13.64,4.03,91.0,13,26,5.91,0.0,0.0,NE,scattered clouds,2019-11-09 18:28:47
352,Jeremie,18.65,-74.12,78.1,80,19,2.77,0.0,0.75,HT,light rain,2019-11-09 18:28:47
353,Samarai,-10.62,150.67,74.32,92,85,4.54,0.0,0.0,PG,overcast clouds,2019-11-09 18:28:47
354,Ostrovnoy,68.05,39.51,11.14,94,95,4.07,0.0,0.0,RU,overcast clouds,2019-11-09 18:25:35
355,Anadyr,64.73,177.51,23.0,85,90,6.71,0.0,0.0,RU,overcast clouds,2019-11-09 18:28:48
356,Iralaya,15.0,-83.23,82.89,77,14,15.35,0.0,2.56,HN,light rain,2019-11-09 18:28:48
357,Ekhabi,53.51,142.97,25.12,81,94,22.35,0.0,0.0,RU,overcast clouds,2019-11-09 18:28:48
358,Patacamaya,-17.23,-67.92,61.56,35,52,11.92,0.0,0.12,BO,light rain,2019-11-09 18:28:49
359,Kudat,6.89,116.84,78.01,78,75,4.7,0.0,0.0,MY,broken clouds,2019-11-09 18:28:49
360,Derbent,42.06,48.29,58.5,81,0,3.85,0.0,0.0,RU,clear sky,2019-11-09 18:28:49
361,Santana,-0.06,-51.18,95.0,53,75,12.75,0.0,0.0,BR,broken clouds,2019-11-09 18:28:49
362,Iguape,-24.7,-47.56,76.15,88,100,5.14,0.0,0.5,BR,light rain,2019-11-09 18:28:50
363,Ahuimanu,21.44,-157.84,77.0,78,40,5.82,0.0,0.0,US,scattered clouds,2019-11-09 18:28:50
364,Mayuge,0.46,33.48,70.63,83,85,0.27,0.0,0.69,UG,light rain,2019-11-09 18:28:50
365,Damaturu,11.75,11.96,88.83,20,63,6.98,0.0,0.0,NG,broken clouds,2019-11-09 18:28:50
366,Olinda,-37.84,145.39,54.0,81,90,12.75,0.0,0.0,AU,light rain,2019-11-09 18:28:51
367,El Calvario,4.35,-73.71,77.0,88,75,3.36,0.0,0.0,CO,broken clouds,2019-11-09 18:28:51
368,Sinazongwe,-17.26,27.46,86.63,46,63,3.8,0.0,0.0,ZM,broken clouds,2019-11-09 18:28:51
369,Sisimiut,66.94,-53.67,28.92,47,95,19.15,0.0,0.0,GL,overcast clouds,2019-11-09 18:28:51
370,Khipro,25.83,69.38,74.79,21,0,8.79,0.0,0.0,PK,clear sky,2019-11-09 18:28:52
371,Maragogi,-9.01,-35.22,79.7,74,82,12.91,0.0,0.0,BR,broken clouds,2019-11-09 18:28:41
372,Nantucket,41.28,-70.1,39.99,48,1,9.17,0.0,0.0,US,clear sky,2019-11-09 18:28:52
373,Yibin,28.77,104.64,59.2,85,100,4.18,0.0,0.0,CN,overcast clouds,2019-11-09 18:28:52
374,Kaseda,31.42,130.32,53.8,78,0,4.88,0.0,0.0,JP,clear sky,2019-11-09 18:28:52
375,Sept-Iles,50.2,-66.38,26.01,45,75,11.41,0.0,0.0,CA,shower rain,2019-11-09 18:27:19
376,Hay River,60.82,-115.79,3.2,77,75,12.75,0.0,0.0,CA,light snow,2019-11-09 18:28:53
377,Grindavik,63.84,-22.43,39.2,86,53,8.05,0.0,0.0,IS,broken clouds,2019-11-09 18:28:53
378,Shimoda,34.7,138.93,52.0,80,84,1.01,0.0,0.0,JP,broken clouds,2019-11-09 18:28:53
379,Rincon,8.46,-82.28,84.2,79,75,4.7,0.0,0.0,PA,broken clouds,2019-11-09 18:28:54
380,Qaqortoq,60.72,-46.03,44.6,30,75,39.15,0.0,0.0,GL,light rain,2019-11-09 18:28:01
381,Veraval,49.65,0.71,44.6,100,100,12.75,0.0,0.0,FR,moderate rain,2019-11-09 18:28:54
382,Beterou,9.2,2.26,82.29,51,50,3.67,0.0,0.0,BJ,scattered clouds,2019-11-09 18:28:54
383,Lata,30.78,78.62,23.43,75,0,2.62,0.0,0.0,IN,clear sky,2019-11-09 18:28:55
384,Talnakh,69.49,88.39,-13.01,75,100,13.42,0.0,0.0,RU,overcast clouds,2019-11-09 18:28:55
385,Chincha Alta,-13.42,-76.13,71.6,30,37,11.41,0.0,0.0,PE,scattered clouds,2019-11-09 18:28:55
386,Portland,43.66,-70.25,39.2,32,1,10.29,0.0,0.0,US,clear sky,2019-11-09 18:28:55
387,Suntar,62.16,117.65,20.26,94,98,4.94,0.0,0.0,RU,overcast clouds,2019-11-09 18:28:56
388,Toro,41.52,-5.39,48.2,93,75,14.99,0.0,0.0,ES,broken clouds,2019-11-09 18:25:43
389,Lakhimpur,27.24,94.1,68.95,95,88,4.54,0.0,0.0,IN,overcast clouds,2019-11-09 18:28:56
390,Khani,41.96,42.96,48.2,87,0,3.36,0.0,0.0,GE,clear sky,2019-11-09 18:28:56
391,George Town,5.42,100.33,80.6,88,75,1.77,0.0,0.0,MY,broken clouds,2019-11-09 18:28:57
392,Kabwe,-14.44,28.44,83.57,32,52,12.06,0.0,0.0,ZM,broken clouds,2019-11-09 18:28:57
393,Goderich,43.74,-81.71,35.01,73,91,17.0,0.0,0.0,CA,overcast clouds,2019-11-09 18:28:57
394,Airai,-8.93,125.41,67.23,76,76,2.68,0.0,0.0,TL,broken clouds,2019-11-09 18:27:20
395,Gweta,-20.21,25.26,88.86,27,42,16.44,0.0,0.0,BW,scattered clouds,2019-11-09 18:28:57
396,Kangaba,11.94,-8.41,89.38,34,61,1.68,0.0,0.0,ML,broken clouds,2019-11-09 18:28:58
397,Kinshasa,-4.32,15.31,80.6,83,75,6.93,0.0,0.0,CD,broken clouds,2019-11-09 18:28:58
398,Seguin,29.57,-97.96,64.99,55,1,1.59,0.0,0.0,US,clear sky,2019-11-09 18:28:58
399,Nemuro,43.32,145.57,39.15,64,0,9.33,0.0,0.0,JP,clear sky,2019-11-09 18:28:58
400,Dong Hoi,17.48,106.6,64.11,92,40,5.55,0.0,0.0,VN,scattered clouds,2019-11-09 18:28:59
401,Knyaze-Volkonskoye,48.46,135.46,21.2,53,0,20.13,0.0,0.0,RU,clear sky,2019-11-09 18:28:59
402,Peniche,39.36,-9.38,59.0,87,75,18.34,0.0,0.0,PT,broken clouds,2019-11-09 18:28:59
403,Matagami,9.67,8.4,75.18,58,100,1.63,0.0,0.0,NG,overcast clouds,2019-11-09 18:29:00
404,South Valley,35.01,-106.68,60.01,28,1,4.65,0.0,0.0,US,clear sky,2019-11-09 18:28:19
405,Mehamn,71.03,27.85,17.08,83,0,5.28,0.0,0.0,NO,clear sky,2019-11-09 18:29:01
406,Sao Jose Da Coroa Grande,-8.9,-35.15,79.7,74,82,12.91,0.0,0.0,BR,broken clouds,2019-11-09 18:29:01
407,Sabang,13.8,121.11,77.0,92,98,0.69,0.0,0.0,PH,overcast clouds,2019-11-09 18:27:48
408,Rovaniemi,66.5,25.72,8.6,84,100,13.87,0.0,0.0,FI,light shower snow,2019-11-09 18:29:01
409,Fukue,35.03,136.69,57.0,66,20,17.22,0.0,0.0,JP,few clouds,2019-11-09 18:29:02
410,Naqadeh,36.96,45.39,49.68,35,0,2.1,0.0,0.0,IR,clear sky,2019-11-09 18:29:02
411,Ayabaca,-4.64,-79.72,72.0,61,57,6.85,0.0,0.69,PE,light rain,2019-11-09 18:29:02
412,Catuday,16.29,119.81,81.14,75,100,3.98,0.0,2.44,PH,light rain,2019-11-09 18:29:03
413,Jiaonan,35.88,119.98,60.8,67,87,13.42,0.0,0.0,CN,haze,2019-11-09 18:29:03
414,Bandarbeyla,9.49,50.81,80.24,72,0,17.18,0.0,0.0,SO,clear sky,2019-11-09 18:29:03
415,Toora-Khem,52.47,96.11,15.37,72,47,7.14,0.0,0.0,RU,scattered clouds,2019-11-09 18:29:04
416,College,64.86,-147.8,19.99,91,1,5.37,0.0,0.0,US,mist,2019-11-09 18:25:50
417,Klyuchi,52.25,79.17,27.88,60,100,10.92,0.0,0.0,RU,overcast clouds,2019-11-09 18:29:04
418,Noumea,-22.28,166.46,73.99,88,35,1.12,0.0,0.0,NC,scattered clouds,2019-11-09 18:29:04
419,Furtwangen,48.05,8.22,42.01,80,24,3.36,0.0,0.0,DE,few clouds,2019-11-09 18:29:04
420,Punta De Bombon,-17.17,-71.79,64.29,73,100,8.14,0.0,0.0,PE,overcast clouds,2019-11-09 18:29:05
421,Tessalit,20.2,1.01,85.86,14,100,15.68,0.0,0.0,ML,overcast clouds,2019-11-09 18:29:05
422,Aykhal,65.95,111.51,-2.21,84,90,4.47,0.0,0.0,RU,light snow,2019-11-09 18:29:05
423,Conde,-11.81,-37.61,79.36,76,87,13.09,0.0,0.0,BR,overcast clouds,2019-11-09 18:29:05
424,Cohoes,42.77,-73.7,37.99,44,40,10.29,0.0,0.0,US,scattered clouds,2019-11-09 18:29:06
425,Sambava,-14.27,50.17,71.29,96,35,2.19,0.0,1.56,MG,light rain,2019-11-09 18:29:06
426,Sabha,27.03,14.43,80.37,25,100,7.07,0.0,0.0,LY,overcast clouds,2019-11-09 18:29:06
427,Dalvik,57.79,14.13,37.99,100,100,11.41,0.0,0.0,SE,light rain,2019-11-09 18:29:05
428,Berlevag,70.86,29.09,30.87,72,86,5.82,0.0,0.0,NO,overcast clouds,2019-11-09 18:29:06
429,Micheweni,-4.97,39.83,82.11,81,4,12.15,0.0,0.75,TZ,light rain,2019-11-09 18:29:07
430,Hongjiang,27.21,109.83,56.66,73,99,2.19,0.0,0.0,CN,overcast clouds,2019-11-09 18:29:07
431,Luba,17.32,120.7,72.5,88,57,4.05,0.0,0.44,PH,light rain,2019-11-09 18:29:07
432,Sudbury,46.49,-80.99,34.0,90,90,17.22,0.0,0.0,CA,light snow,2019-11-09 18:26:10
433,Gilgit,35.92,74.31,23.52,33,0,5.48,0.0,0.0,PK,clear sky,2019-11-09 18:29:08
434,Arroyo,-11.08,-66.08,93.2,52,75,9.17,0.0,0.0,BO,broken clouds,2019-11-09 18:29:08
435,Arman,59.7,150.17,24.1,68,100,23.55,0.0,0.0,RU,overcast clouds,2019-11-09 18:29:08
436,Quatre Cocos,-20.21,57.76,73.99,83,75,5.82,0.0,0.0,MU,broken clouds,2019-11-09 18:29:08
437,Ucar,40.51,47.65,46.4,81,0,2.24,0.0,0.0,AZ,clear sky,2019-11-09 18:29:09
438,Chamba,32.56,76.12,52.92,39,0,8.95,0.0,0.0,IN,clear sky,2019-11-09 18:29:09
439,Buala,-8.15,159.59,78.04,86,42,3.13,0.0,0.0,SB,scattered clouds,2019-11-09 18:29:09
440,Ratnagiri,16.98,73.3,69.04,92,0,2.3,0.0,0.0,IN,clear sky,2019-11-09 18:29:09
441,Yaan,7.38,8.57,83.79,59,65,3.76,0.0,0.0,NG,broken clouds,2019-11-09 18:29:09
442,Bereda,43.27,-7.54,55.0,87,75,19.46,0.0,0.0,ES,broken clouds,2019-11-09 18:29:10
443,Adrar,27.87,-0.29,69.8,23,0,13.87,0.0,0.0,DZ,clear sky,2019-11-09 18:29:10
444,Hofn,64.25,-15.21,45.32,76,100,24.0,0.0,1.25,IS,light rain,2019-11-09 18:28:36
445,Trinidad,-14.83,-64.9,93.2,56,20,9.17,0.0,0.0,BO,few clouds,2019-11-09 18:29:10
446,Kyaukse,21.6,96.13,73.47,89,3,1.86,0.0,0.0,MM,clear sky,2019-11-09 18:29:10
447,Juneau,58.3,-134.42,35.6,26,75,26.4,0.0,0.0,US,broken clouds,2019-11-09 18:29:11
448,General Roca,-39.03,-67.58,78.8,27,40,4.7,0.0,0.0,AR,scattered clouds,2019-11-09 18:29:11
449,Talen,23.57,76.72,69.93,64,0,4.72,0.0,0.0,IN,clear sky,2019-11-09 18:29:12
450,Shingu,33.72,135.99,58.5,63,0,6.89,0.0,0.0,JP,clear sky,2019-11-09 18:29:12
451,Mutata,7.24,-76.44,72.19,95,100,4.18,0.0,4.44,CO,moderate rain,2019-11-09 18:29:12
452,Bonavista,48.65,-53.11,35.01,56,19,25.99,0.0,0.0,CA,few clouds,2019-11-09 18:29:12
453,Ikare,7.49,5.23,78.96,66,60,1.21,0.0,0.0,NG,broken clouds,2019-11-09 18:29:13
454,Ilulissat,69.22,-51.1,39.2,29,75,21.92,0.0,0.0,GL,broken clouds,2019-11-09 18:28:11
455,Atar,20.52,-13.05,84.2,20,100,11.41,0.0,0.0,MR,overcast clouds,2019-11-09 18:29:13
456,Sistranda,63.73,8.83,25.0,73,20,11.41,0.0,0.0,NO,few clouds,2019-11-09 18:29:13
457,Frutigen,46.59,7.64,42.8,93,75,3.36,0.0,0.0,CH,broken clouds,2019-11-09 18:29:14
458,Labuhan,-2.54,115.51,73.36,93,71,1.41,0.0,0.0,ID,broken clouds,2019-11-09 18:29:14
459,Soyo,-6.13,12.37,82.4,78,20,6.93,0.0,0.0,AO,few clouds,2019-11-09 18:28:25
460,Hirara,24.8,125.28,70.63,68,48,20.85,0.0,0.0,JP,scattered clouds,2019-11-09 18:29:13
461,Itacare,-14.28,-39.0,80.74,65,56,8.57,0.0,0.0,BR,broken clouds,2019-11-09 18:26:02
462,Kasangulu,-4.59,15.17,80.6,83,75,6.93,0.0,0.0,CD,broken clouds,2019-11-09 18:29:15
463,Carberry,49.87,-99.36,24.8,85,90,4.7,0.0,0.0,CA,light snow,2019-11-09 18:29:15
464,Havre,48.55,-109.68,46.4,65,20,21.92,0.0,0.0,US,few clouds,2019-11-09 18:24:22
465,Zavetnoye,47.12,43.89,52.0,84,18,11.61,0.0,0.0,RU,few clouds,2019-11-09 18:29:16
466,Simao,22.76,100.79,59.68,95,99,2.8,0.0,0.0,CN,overcast clouds,2019-11-09 18:29:16
467,Huayucachi,-12.13,-75.23,51.51,68,84,7.02,0.0,3.44,PE,moderate rain,2019-11-09 18:29:16
468,Opuwo,-18.06,13.84,79.29,37,77,7.61,0.0,0.0,NA,broken clouds,2019-11-09 18:29:16
469,Kidal,18.44,1.41,89.8,13,62,9.24,0.0,0.0,ML,broken clouds,2019-11-09 18:24:19
470,Khilok,51.36,110.46,28.31,95,100,7.76,0.0,0.0,RU,overcast clouds,2019-11-09 18:29:17
471,Mushie,-3.02,16.92,78.03,85,48,1.01,0.0,1.31,CD,light rain,2019-11-09 18:29:17
472,Yatou,3.63,9.81,84.2,83,40,3.91,0.0,0.0,CM,scattered clouds,2019-11-09 18:29:17
473,Kutum,14.2,24.66,75.56,17,54,11.74,0.0,0.0,SD,broken clouds,2019-11-09 18:29:18
474,Cullman,34.17,-86.84,57.0,38,1,8.05,0.0,0.0,US,clear sky,2019-11-09 18:29:18
475,Cedar City,37.68,-113.06,53.6,18,20,4.61,0.0,0.0,US,few clouds,2019-11-09 18:29:18
476,Hami,42.84,93.51,33.78,32,0,3.02,0.0,0.0,CN,clear sky,2019-11-09 18:25:16
477,Prince George,53.92,-122.75,27.0,100,90,10.29,0.0,0.0,CA,light snow,2019-11-09 18:29:19
478,Severnoye,54.09,52.54,27.84,76,37,3.96,0.0,0.0,RU,scattered clouds,2019-11-09 18:29:19
479,Kaniama,-7.57,24.18,70.3,89,100,1.81,0.0,0.0,CD,overcast clouds,2019-11-09 18:29:19
480,Myitkyina,25.38,97.4,64.92,84,96,2.17,0.0,0.13,MM,light rain,2019-11-09 18:29:20
481,Winneba,5.35,-0.62,82.4,88,20,8.05,0.0,0.0,GH,few clouds,2019-11-09 18:29:20
482,Leshukonskoye,64.9,45.76,11.75,93,71,4.12,0.0,0.0,RU,broken clouds,2019-11-09 18:29:20
483,Boundiali,9.53,-6.48,82.72,54,19,2.62,0.0,0.0,CI,few clouds,2019-11-09 18:29:20
484,Buzmeyin,38.05,58.21,46.4,57,0,2.24,0.0,0.0,TM,clear sky,2019-11-09 18:29:20
485,Dunedin,-45.87,170.5,52.0,92,100,8.01,0.0,1.19,NZ,light rain,2019-11-09 18:29:21
486,Zyryanka,65.73,150.89,-2.17,94,100,19.73,0.13,0.0,RU,light snow,2019-11-09 18:29:21
487,Dobric,47.25,24.13,53.6,76,30,3.09,0.0,0.0,RO,scattered clouds,2019-11-09 18:29:21
488,Sao Miguel Do Araguaia,-13.28,-50.16,96.3,33,29,3.74,0.0,0.0,BR,scattered clouds,2019-11-09 18:29:21
489,Puerto Madero,-34.61,-58.36,78.01,73,20,17.22,0.0,0.0,AR,few clouds,2019-11-09 18:29:22
490,Raudeberg,61.99,5.14,35.01,68,0,8.05,0.0,0.0,NO,clear sky,2019-11-09 18:29:22
491,Aswan,24.09,32.9,82.4,30,0,7.52,0.0,0.0,EG,clear sky,2019-11-09 18:29:22
492,Mahon,51.89,-8.4,44.6,75,20,16.11,0.0,0.0,IE,few clouds,2019-11-09 18:27:02
493,Ust-Nera,64.57,143.24,-3.73,95,100,8.57,0.0,0.0,RU,overcast clouds,2019-11-09 18:29:22
494,Vestmanna,62.16,-7.17,37.4,86,100,11.41,0.12,0.0,FO,light snow,2019-11-09 18:29:23
495,Acapulco,16.86,-99.88,89.6,59,5,5.41,0.0,0.0,MX,clear sky,2019-11-09 18:25:43
496,Macia,-25.03,33.09,68.04,83,44,5.21,0.0,0.0,MZ,scattered clouds,2019-11-09 18:29:23
497,Kununurra,-15.77,128.74,80.6,69,89,5.82,0.0,0.0,AU,overcast clouds,2019-11-09 18:27:35
498,Sawtell,-30.38,153.1,46.4,93,0,1.12,0.0,0.0,AU,haze,2019-11-09 18:29:23
499,Creil,49.26,2.47,44.01,87,75,10.29,0.0,0.0,FR,broken clouds,2019-11-09 18:29:24
500,Ruteng,-8.61,120.46,66.92,86,28,5.08,0.0,0.0,ID,scattered clouds,2019-11-09 18:29:24
501,Eyl,7.98,49.82,80.13,76,0,21.18,0.0,0.0,SO,clear sky,2019-11-09 18:29:24
502,Ust-Maya,60.42,134.54,-23.01,98,19,1.88,0.0,0.0,RU,few clouds,2019-11-09 18:28:24
503,Lobito,-12.35,13.55,79.97,82,0,4.27,0.0,0.0,AO,clear sky,2019-11-09 18:29:25
504,Oranjestad,12.52,-70.03,89.6,59,20,19.46,0.0,0.0,AW,few clouds,2019-11-09 18:26:36
505,Puerto Escondido,15.86,-97.07,86.0,70,20,5.82,0.0,0.0,MX,few clouds,2019-11-09 18:29:25
506,Bell Ville,-32.63,-62.69,86.0,46,66,11.01,0.0,0.0,AR,broken clouds,2019-11-09 18:29:25
507,Laela,-8.57,32.05,75.18,42,65,6.35,0.0,0.0,TZ,broken clouds,2019-11-09 18:29:26
508,Waddan,29.16,16.14,77.61,32,100,6.96,0.0,0.0,LY,overcast clouds,2019-11-09 18:29:26
509,Kumluca,36.37,30.29,65.68,49,0,4.74,0.0,0.0,TR,clear sky,2019-11-09 18:29:26
510,Havelock,34.88,-76.9,57.2,50,1,6.93,0.0,0.0,US,clear sky,2019-11-09 18:27:34
511,Tazmalt,36.39,4.4,59.0,44,20,8.05,0.0,0.0,DZ,few clouds,2019-11-09 18:26:08
512,Aras,42.56,-2.36,48.0,93,75,1.12,0.0,0.0,ES,broken clouds,2019-11-09 18:29:27
513,Samarinda,-0.5,117.14,72.66,95,92,1.86,0.0,0.0,ID,overcast clouds,2019-11-09 18:29:27
514,Dhari,21.33,71.03,78.21,69,45,5.08,0.0,0.13,IN,light rain,2019-11-09 18:29:27
515,Novyy Urengoy,66.08,76.63,-9.03,98,28,9.33,0.0,0.0,RU,scattered clouds,2019-11-09 18:24:30
516,Koundara,12.49,-13.3,90.68,34,34,2.93,0.0,0.0,GN,scattered clouds,2019-11-09 18:29:28
517,Yar-Sale,66.83,70.83,-7.91,96,16,6.73,0.0,0.0,RU,few clouds,2019-11-09 18:29:28
518,Joshimath,30.57,79.57,39.94,39,0,6.93,0.0,0.0,IN,clear sky,2019-11-09 18:29:28
519,Kushikino,31.72,130.27,53.8,78,0,4.88,0.0,0.0,JP,clear sky,2019-11-09 18:29:29
520,Dayong,25.02,118.29,62.6,48,0,4.47,0.0,0.0,CN,clear sky,2019-11-09 18:29:29
521,Senanga,-16.1,23.3,85.57,24,44,4.03,0.0,0.0,ZM,scattered clouds,2019-11-09 18:29:29
522,Southampton,50.9,-1.4,46.0,87,100,6.93,0.0,6.56,GB,moderate rain,2019-11-09 18:25:00
523,Altamont,49.4,-98.5,28.4,100,75,8.05,0.0,0.0,CA,mist,2019-11-09 18:25:49
524,Imbituba,-28.24,-48.67,71.6,100,75,5.82,0.0,0.0,BR,light rain,2019-11-09 18:29:30
525,Yerofey Pavlovich,53.97,121.97,5.63,96,96,2.44,0.0,0.0,RU,overcast clouds,2019-11-09 18:29:30
526,Russkaya Polyana,53.78,73.88,21.87,62,100,11.14,0.0,0.0,RU,overcast clouds,2019-11-09 18:29:30
527,Sola,-3.17,33.8,75.83,56,74,7.4,0.0,1.75,TZ,light rain,2019-11-09 18:29:30
528,Dhidhdhoo,6.88,73.1,82.83,62,20,2.33,0.0,0.0,MV,few clouds,2019-11-09 18:29:30
529,Vredendal,-31.68,18.49,65.34,65,75,10.63,0.0,0.0,ZA,broken clouds,2019-11-09 18:29:31
530,Kushima,31.5,131.29,63.39,73,18,10.63,0.0,0.0,JP,few clouds,2019-11-09 18:29:31
531,Eirunepe,-6.66,-69.87,96.42,38,93,2.86,0.0,0.0,BR,overcast clouds,2019-11-09 18:29:31
532,Tocopilla,-22.09,-70.2,78.51,13,56,13.42,0.0,0.0,CL,broken clouds,2019-11-09 18:29:31
533,Verkhoyansk,67.55,133.39,-22.73,98,25,0.63,0.0,0.0,RU,scattered clouds,2019-11-09 18:29:32
